{
  "Stations": [
    {
      "Address": {
        "City": "Huntington",
        "State": "VA",
        "Street": "2501 Huntington Ave",
        "Zip": "22303"
      },
      "Code": "C15",
      "Lat": 38.7939158529,
      "LineCode1": "YL",
      "LineCode2": null,
      "LineCode3": null,
      "LineCode4": null,
      "Lon": -77.0752057891,
      "Name": "Huntington",
      "StationTogether1": "",
      "StationTogether2": ""
    },
    {
      "Address": {
        "City": "Alexandria",
        "State": "VA",
        "Street": "2400 Eisenhower Avenue",
        "Zip": "22314"
      },
      "Code": "C14",
      "Lat": 38.8004254497,
      "LineCode1": "YL",
      "LineCode2": null,
      "LineCode3": null,
      "LineCode4": null,
      "Lon": -77.0708743893,
      "Name": "Eisenhower Avenue",
      "StationTogether1": "",
      "StationTogether2": ""
    },
    {
      "Address": {
        "City": "Alexandria",
        "State": "VA",
        "Street": "1900 King Street",
        "Zip": "22301"
      },
      "Code": "C13",
      "Lat": 38.8065861172,
      "LineCode1": "BL",
      "LineCode2": "YL",
      "LineCode3": null,
      "LineCode4": null,
      "Lon": -77.0608112085,
      "Name": "King Street",
      "StationTogether1": "",
      "StationTogether2": ""
    },
    {
      "Address": {
        "City": "Alexandria",
        "State": "VA",
        "Street": "700 N. West St.",
        "Zip": "22301"
      },
      "Code": "C12",
      "Lat": 38.8141436672,
      "LineCode1": "BL",
      "LineCode2": "YL",
      "LineCode3": null,
      "LineCode4": null,
      "Lon": -77.053667574,
      "Name": "Braddock Road",
      "StationTogether1": "",
      "StationTogether2": ""
    },
    {
      "Address": {
        "City": "Arlington",
        "State": "VA",
        "Street": "2400 S. Smith Blvd.",
        "Zip": "22202"
      },
      "Code": "C10",
      "Lat": 38.8534163859,
      "LineCode1": "BL",
      "LineCode2": "YL",
      "LineCode3": null,
      "LineCode4": null,
      "Lon": -77.0440422943,
      "Name": "National Arpt",
      "StationTogether1": "",
      "StationTogether2": ""
    },
    {
      "Address": {
        "City": "Arlington",
        "State": "VA",
        "Street": "1750 South Clark St.",
        "Zip": "22202"
      },
      "Code": "C09",
      "Lat": 38.8579043204,
      "LineCode1": "BL",
      "LineCode2": "YL",
      "LineCode3": null,
      "LineCode4": null,
      "Lon": -77.0502898097,
      "Name": "Crystal City",
      "StationTogether1": "",
      "StationTogether2": ""
    },
    {
      "Address": {
        "City": "Arlington",
        "State": "VA",
        "Street": "1250 South Hayes St.",
        "Zip": "22202"
      },
      "Code": "C08",
      "Lat": 38.8618823867,
      "LineCode1": "BL",
      "LineCode2": "YL",
      "LineCode3": null,
      "LineCode4": null,
      "Lon": -77.0595389215,
      "Name": "Pentagon City",
      "StationTogether1": "",
      "StationTogether2": ""
    },
    {
      "Address": {
        "City": "Arlington",
        "State": "VA",
        "Street": "2 South Rotary Road",
        "Zip": "22202"
      },
      "Code": "C07",
      "Lat": 38.8694627012,
      "LineCode1": "BL",
      "LineCode2": "YL",
      "LineCode3": null,
      "LineCode4": null,
      "Lon": -77.0537156734,
      "Name": "Pentagon",
      "StationTogether1": "",
      "StationTogether2": ""
    },
    {
      "Address": {
        "City": "Washington",
        "State": "DC",
        "Street": "600 Maryland Avenue SW",
        "Zip": "20024"
      },
      "Code": "F03",
      "Lat": 38.8848377279,
      "LineCode1": "GR",
      "LineCode2": "YL",
      "LineCode3": null,
      "LineCode4": null,
      "Lon": -77.021908484,
      "Name": "L'Enfant Plaza",
      "StationTogether1": "D03",
      "StationTogether2": ""
    },
    {
      "Address": {
        "City": "Washington",
        "State": "DC",
        "Street": "701 Pennsylvania Avenue NW",
        "Zip": "20004"
      },
      "Code": "F02",
      "Lat": 38.8936652235,
      "LineCode1": "GR",
      "LineCode2": "YL",
      "LineCode3": null,
      "LineCode4": null,
      "Lon": -77.0219143879,
      "Name": "Archives",
      "StationTogether1": "",
      "StationTogether2": ""
    },
    {
      "Address": {
        "City": "Washington",
        "State": "DC",
        "Street": "630 H St. NW",
        "Zip": "20001"
      },
      "Code": "F01",
      "Lat": 38.8983168097,
      "LineCode1": "GR",
      "LineCode2": "YL",
      "LineCode3": null,
      "LineCode4": null,
      "Lon": -77.0219153904,
      "Name": "Gallery Place",
      "StationTogether1": "B01",
      "StationTogether2": ""
    },
    {
      "Address": {
        "City": "Washington",
        "State": "DC",
        "Street": "700 M St. NW",
        "Zip": "20001"
      },
      "Code": "E01",
      "Lat": 38.9064368149,
      "LineCode1": "GR",
      "LineCode2": "YL",
      "LineCode3": null,
      "LineCode4": null,
      "Lon": -77.0219143803,
      "Name": "Mt Vernon Sq",
      "StationTogether1": "",
      "StationTogether2": ""
    },
    {
      "Address": {
        "City": "Washington",
        "State": "DC",
        "Street": "1701 8th St. NW",
        "Zip": "20001"
      },
      "Code": "E02",
      "Lat": 38.9134768711,
      "LineCode1": "GR",
      "LineCode2": "YL",
      "LineCode3": null,
      "LineCode4": null,
      "Lon": -77.0219117007,
      "Name": "Shaw",
      "StationTogether1": "",
      "StationTogether2": ""
    },
    {
      "Address": {
        "City": "Washington",
        "State": "DC",
        "Street": "1240 U Street NW",
        "Zip": "20009"
      },
      "Code": "E03",
      "Lat": 38.9170023992,
      "LineCode1": "GR",
      "LineCode2": "YL",
      "LineCode3": null,
      "LineCode4": null,
      "Lon": -77.0274958929,
      "Name": "U Street",
      "StationTogether1": "",
      "StationTogether2": ""
    },
    {
      "Address": {
        "City": "Washington",
        "State": "DC",
        "Street": "3030 14th St. NW",
        "Zip": "20009"
      },
      "Code": "E04",
      "Lat": 38.9278379675,
      "LineCode1": "GR",
      "LineCode2": "YL",
      "LineCode3": null,
      "LineCode4": null,
      "Lon": -77.0325521177,
      "Name": "Columbia Heights",
      "StationTogether1": "",
      "StationTogether2": ""
    },
    {
      "Address": {
        "City": "Washington",
        "State": "DC",
        "Street": "3700 Georgia Avenue NW",
        "Zip": "20010"
      },
      "Code": "E05",
      "Lat": 38.9374346301,
      "LineCode1": "GR",
      "LineCode2": "YL",
      "LineCode3": null,
      "LineCode4": null,
      "Lon": -77.023460904,
      "Name": "Georgia Avenue",
      "StationTogether1": "",
      "StationTogether2": ""
    },
    {
      "Address": {
        "City": "Washington",
        "State": "DC",
        "Street": "550 Galloway Street NE",
        "Zip": "20011"
      },
      "Code": "E06",
      "Lat": 38.9518467675,
      "LineCode1": "GR",
      "LineCode2": "YL",
      "LineCode3": null,
      "LineCode4": null,
      "Lon": -77.0022030768,
      "Name": "Fort Totten",
      "StationTogether1": "B06",
      "StationTogether2": ""
    }
  ]
}